[{"id": "9c5a66c8-cc13-416f-a5d9-0a769c87d318", "name": "(512) Brewing Co", "brewery_type": "micro", "address_1": "407 Radam Ln Ste F200", "address_2": null, "address_3": null, "city": "Austin", "state_province": "Texas", "postal_code": "78745-1197", "country": "United States", "longitude": null, "latitude": null, "phone": "5129211545", "website_url": "http://www.512brewing.com", "state": "Texas", "street": "407 Radam Ln Ste F200"}, {"id": "c542eae9-6b85-4583-84c4-cba24c0cd68c", "name": "Bent River Brewing Co Production & Tasting Room", "brewery_type": "micro", "address_1": "512 24th St", "address_2": null, "address_3": null, "city": "Rock Island", "state_province": "Illinois", "postal_code": "61201-8928", "country": "United States", "longitude": -90.5669283, "latitude": 41.5076339, "phone": "3092834811", "website_url": "http://www.bentriverbrewery.com", "state": "Illinois", "street": "512 24th St"}, {"id": "2c58a683-787e-4d26-a7f0-e12e31b36e74", "name": "Barking Armadillo Brewing", "brewery_type": "micro", "address_1": "507 River Bend", "address_2": null, "address_3": null, "city": "Georgetown", "state_province": "Texas", "postal_code": "78723-3342", "country": "United States", "longitude": -97.6932487, "latitude": 30.6608114, "phone": "512-240-5137", "website_url": "http://www.barkingarmadillo.com/", "state": "Texas", "street": "507 River Bend"}, {"id": "fafc2e23-c3bf-46d3-87c0-00e92209269b", "name": "515 Brewing Co", "brewery_type": "micro", "address_1": "7700 University Ave", "address_2": null, "address_3": null, "city": "Clive", "state_province": "Iowa", "postal_code": "50325-1271", "country": "United States", "longitude": -93.7228408, "latitude": 41.599992, "phone": "5156614615", "website_url": "http://www.515brewing.com", "state": "Iowa", "street": "7700 University Ave"}, {"id": "729fb6cc-0d37-4179-81fe-73a18e67b667", "name": "Central Machine Works", "brewery_type": "micro", "address_1": "4824 E Cesar Chavez St", "address_2": null, "address_3": null, "city": "Austin", "state_province": "Texas", "postal_code": "78702-5135", "country": "United States", "longitude": -97.7037665, "latitude": 30.2520225, "phone": "512-220-2340", "website_url": "http://cmwbrewery.com/", "state": "Texas", "street": "4824 E Cesar Chavez St"}, {"id": "e9a7e33f-8187-4dba-9f5d-a6955fd566bc", "name": "Brew Gentlemen", "brewery_type": "micro", "address_1": "512 Braddock Ave", "address_2": null, "address_3": null, "city": "Braddock", "state_province": "Pennsylvania", "postal_code": "15104-1806", "country": "United States", "longitude": -79.8702107, "latitude": 40.4041599, "phone": "4128715075", "website_url": "http://www.brewgentlemen.com", "state": "Pennsylvania", "street": "512 Braddock Ave"}]